CodigoRegion,NombreRegion,Abreviatura,CodigoProvincia,NombreProvincia,CodigoComuna,NombreComuna,Latitud,Longitud
1,TARAPACÁ,TPCA,11,IQUIQUE,1101,IQUIQUE,-20.2439,-70.1389
1,TARAPACÁ,TPCA,11,IQUIQUE,1107,ALTO HOSPICIO,-20.2569,-70.0219
1,TARAPACÁ,TPCA,14,TAMARUGAL,1401,POZO ALMONTE,-20.2908,-69.6958
1,TARAPACÁ,TPCA,14,TAMARUGAL,1402,CAMIÑA,-20.4828,-69.3669
1,TARAPACÁ,TPCA,14,TAMARUGAL,1403,COLCHANE,-19.2839,-68.675
1,TARAPACÁ,TPCA,14,TAMARUGAL,1404,HUARA,-19.8089,-69.9719
1,TARAPACÁ,TPCA,14,TAMARUGAL,1405,PICA,-20.4828,-69.3778
2,ANTOFAGASTA,ANTOF,21,ANTOFAGASTA,2101,ANTOFAGASTA,-23.6508,-70.395
2,ANTOFAGASTA,ANTOF,21,ANTOFAGASTA,2102,MEJILLONES,-23.11,-70.4558
2,ANTOFAGASTA,ANTOF,21,ANTOFAGASTA,2103,SIERRA GORDA,-22.8978,-69.3228
2,ANTOFAGASTA,ANTOF,21,ANTOFAGASTA,2104,TALTAL,-25.41,-70.4889
2,ANTOFAGASTA,ANTOF,22,EL LOA,2201,CALAMA,-22.4739,-68.9239
2,ANTOFAGASTA,ANTOF,22,EL LOA,2202,OLLAGÜE,-21.2328,-68.2669
2,ANTOFAGASTA,ANTOF,22,EL LOA,2203,SAN PEDRO DE ATACAMA,-22.92,-68.21
2,ANTOFAGASTA,ANTOF,23,TOCOPILLA,2301,TOCOPILLA,-22.0819,-70.1889
2,ANTOFAGASTA,ANTOF,23,TOCOPILLA,2302,MARÍA ELENA,-22.3169,-69.6769
3,ATACAMA,ATCMA,31,COPIAPÓ,3101,COPIAPÓ,-27.375,-70.3289
3,ATACAMA,ATCMA,31,COPIAPÓ,3102,CALDERA,-27.0658,-70.8258
3,ATACAMA,ATCMA,31,COPIAPÓ,3103,TIERRA AMARILLA,-27.4728,-70.2828
3,ATACAMA,ATCMA,32,CHAÑARAL,3201,CHAÑARAL,-26.3458,-70.6239
3,ATACAMA,ATCMA,32,CHAÑARAL,3202,DIEGO DE ALMAGRO,-26.39,-70.0519
3,ATACAMA,ATCMA,33,HUASCO,3301,VALLENAR,-28.5769,-70.77
3,ATACAMA,ATCMA,33,HUASCO,3302,ALTO DEL CARMEN,-28.7489,-70.4908
3,ATACAMA,ATCMA,33,HUASCO,3303,FREIRINA,-28.5058,-71.0758
3,ATACAMA,ATCMA,33,HUASCO,3304,HUASCO,-28.4558,-71.1858
4,COQUIMBO,COQ,41,ELQUI,4101,LA SERENA,-29.9069,-71.2469
4,COQUIMBO,COQ,41,ELQUI,4102,COQUIMBO,-29.9708,-71.3069
4,COQUIMBO,COQ,41,ELQUI,4103,ANDACOLLO,-30.23,-71.0858
4,COQUIMBO,COQ,41,ELQUI,4104,LA HIGUERA,-29.5,-71.2828
4,COQUIMBO,COQ,41,ELQUI,4105,PAIGUANO,-30.0378,-70.5069
4,COQUIMBO,COQ,41,ELQUI,4106,VICUÑA,-30.0189,-70.715
4,COQUIMBO,COQ,42,CHOAPA,4201,ILLAPEL,-31.6389,-71.1789
4,COQUIMBO,COQ,42,CHOAPA,4202,CANELA,-31.3958,-71.4189
4,COQUIMBO,COQ,42,CHOAPA,4203,LOS VILOS,-31.915,-71.5058
4,COQUIMBO,COQ,42,CHOAPA,4204,SALAMANCA,-31.78,-70.9669
4,COQUIMBO,COQ,43,LIMARÍ,4301,OVALLE,-30.5989,-71.1889
4,COQUIMBO,COQ,43,LIMARÍ,4302,COMBARBALÁ,-31.18,-71.0039
4,COQUIMBO,COQ,43,LIMARÍ,4303,MONTE PATRIA,-30.775,-70.9428
4,COQUIMBO,COQ,43,LIMARÍ,4304,PUNITAQUI,-30.8328,-71.26
4,COQUIMBO,COQ,43,LIMARÍ,4305,RÍO HURTADO,-30.2728,-70.6669
5,VALPARAÍSO,VALPO,51,VALPARAÍSO,5101,VALPARAÍSO,-33.0333,-71.6667
5,VALPARAÍSO,VALPO,51,VALPARAÍSO,5102,CASABLANCA,-33.325,-71.41
5,VALPARAÍSO,VALPO,51,VALPARAÍSO,5103,CONCÓN,-32.96,-71.4689
5,VALPARAÍSO,VALPO,51,VALPARAÍSO,5104,JUAN FERNÁNDEZ,-33.6328,-78.8669
5,VALPARAÍSO,VALPO,51,VALPARAÍSO,5105,PUCHUNCAVÍ,-32.7478,-71.3978
5,VALPARAÍSO,VALPO,51,VALPARAÍSO,5107,QUINTERO,-32.845,-71.4669
5,VALPARAÍSO,VALPO,51,VALPARAÍSO,5109,VIÑA DEL MAR,-33.025,-71.515
5,VALPARAÍSO,VALPO,52,ISLA DE PASCUA,5201,ISLA DE PASCUA,-27.1286,-109.3597
5,VALPARAÍSO,VALPO,53,LOS ANDES,5301,LOS ANDES,-32.8369,-70.5969
5,VALPARAÍSO,VALPO,53,LOS ANDES,5302,CALLE LARGA,-32.8831,-70.4819
5,VALPARAÍSO,VALPO,53,LOS ANDES,5303,RINCONADA,-32.8331,-70.6883
5,VALPARAÍSO,VALPO,53,LOS ANDES,5304,SAN ESTEBAN,-32.805,-70.5808
5,VALPARAÍSO,VALPO,54,PETORCA,5401,LA LIGUA,-32.3536,-71.2719
5,VALPARAÍSO,VALPO,54,PETORCA,5402,CABILDO,-32.4089,-71.08
5,VALPARAÍSO,VALPO,54,PETORCA,5403,PAPUDO,-32.47,-71.3808
5,VALPARAÍSO,VALPO,54,PETORCA,5404,PETORCA,-32.29,-70.95
5,VALPARAÍSO,VALPO,54,PETORCA,5405,ZAPALLAR,-32.5678,-71.4378
5,VALPARAÍSO,VALPO,55,QUILLOTA,5501,QUILLOTA,-32.915,-71.2639
5,VALPARAÍSO,VALPO,55,QUILLOTA,5502,CALERA,-32.7839,-71.2039
5,VALPARAÍSO,VALPO,55,QUILLOTA,5503,HIJUELAS,-32.855,-71.0939
5,VALPARAÍSO,VALPO,55,QUILLOTA,5504,LA CRUZ,-32.8239,-71.2439
5,VALPARAÍSO,VALPO,55,QUILLOTA,5506,NOGALES,-32.7358,-71.2078
5,VALPARAÍSO,VALPO,56,SAN ANTONIO,5601,SAN ANTONIO,-33.5947,-71.6072
5,VALPARAÍSO,VALPO,56,SAN ANTONIO,5602,ALGARROBO,-33.3692,-71.6681
5,VALPARAÍSO,VALPO,56,SAN ANTONIO,5603,CARTAGENA,-33.5536,-71.6075
5,VALPARAÍSO,VALPO,56,SAN ANTONIO,5604,EL QUISCO,-33.3914,-71.6928
5,VALPARAÍSO,VALPO,56,SAN ANTONIO,5605,EL TABO,-33.48,-71.6208
5,VALPARAÍSO,VALPO,56,SAN ANTONIO,5606,SANTO DOMINGO,-33.7078,-71.63
5,VALPARAÍSO,VALPO,57,SAN FELIPE DE ACONCAGUA,5701,SAN FELIPE,-32.75,-70.7128
5,VALPARAÍSO,VALPO,57,SAN FELIPE DE ACONCAGUA,5702,CATEMU,-32.7808,-70.9689
5,VALPARAÍSO,VALPO,57,SAN FELIPE DE ACONCAGUA,5703,LLAILLAY,-32.8439,-70.9569
5,VALPARAÍSO,VALPO,57,SAN FELIPE DE ACONCAGUA,5704,PANQUEHUE,-32.7839,-70.8369
5,VALPARAÍSO,VALPO,57,SAN FELIPE DE ACONCAGUA,5705,PUTAENDO,-32.6278,-70.7158
5,VALPARAÍSO,VALPO,57,SAN FELIPE DE ACONCAGUA,5706,SANTA MARÍA,-32.7503,-70.6669
5,VALPARAÍSO,VALPO,58,MARGA MARGA,5801,QUILPUÉ,-33.0475,-71.4422
5,VALPARAÍSO,VALPO,58,MARGA MARGA,5802,LIMACHE,-33.0028,-71.2608
5,VALPARAÍSO,VALPO,58,MARGA MARGA,5803,OLMUÉ,-33.0089,-71.17
5,VALPARAÍSO,VALPO,58,MARGA MARGA,5804,VILLA ALEMANA,-33.0658,-71.3289
6,O'HIGGINS,LGBO,61,CACHAPOAL,6101,RANCAGUA,-34.1619,-70.7408
6,O'HIGGINS,LGBO,61,CACHAPOAL,6102,CODEGUA,-34.0328,-70.6669
6,O'HIGGINS,LGBO,61,CACHAPOAL,6103,COINCO,-34.2728,-70.9528
6,O'HIGGINS,LGBO,61,CACHAPOAL,6104,COLTAUCO,-34.2969,-71.0919
6,O'HIGGINS,LGBO,61,CACHAPOAL,6105,DOÑIHUE,-34.185,-70.8839
6,O'HIGGINS,LGBO,61,CACHAPOAL,6106,GRANEROS,-34.0628,-70.7208
6,O'HIGGINS,LGBO,61,CACHAPOAL,6107,LAS CABRAS,-34.285,-71.31
6,O'HIGGINS,LGBO,61,CACHAPOAL,6108,MACHALÍ,-34.185,-70.6619
6,O'HIGGINS,LGBO,61,CACHAPOAL,6109,MALLOA,-34.445,-70.945
6,O'HIGGINS,LGBO,61,CACHAPOAL,6110,MOSTAZAL,-33.9769,-70.7089
6,O'HIGGINS,LGBO,61,CACHAPOAL,6111,OLIVAR,-34.2139,-70.8189
6,O'HIGGINS,LGBO,61,CACHAPOAL,6112,PEUMO,-34.3889,-71.1708
6,O'HIGGINS,LGBO,61,CACHAPOAL,6113,PICHIDEGUA,-34.3569,-71.2869
6,O'HIGGINS,LGBO,61,CACHAPOAL,6114,QUINTA DE TILCOCO,-34.3569,-70.9689
6,O'HIGGINS,LGBO,61,CACHAPOAL,6115,RENGO,-34.4019,-70.8558
6,O'HIGGINS,LGBO,61,CACHAPOAL,6116,REQUÍNOA,-34.2828,-70.8058
6,O'HIGGINS,LGBO,61,CACHAPOAL,6117,SAN VICENTE,-34.0828,-71.75
6,O'HIGGINS,LGBO,62,CARDENAL CARO,6201,PICHILEMU,-34.4019,-72.0089
6,O'HIGGINS,LGBO,62,CARDENAL CARO,6202,LA ESTRELLA,-34.2,-71.6669
6,O'HIGGINS,LGBO,62,CARDENAL CARO,6203,LITUECHE,-34.1189,-71.7278
6,O'HIGGINS,LGBO,62,CARDENAL CARO,6204,MARCHIHUE,-34.4,-71.6333
6,O'HIGGINS,LGBO,62,CARDENAL CARO,6205,NAVIDAD,-33.95,-71.8328
6,O'HIGGINS,LGBO,62,CARDENAL CARO,6206,PAREDONES,-34.6608,-71.8939
6,O'HIGGINS,LGBO,63,COLCHAGUA,6301,SAN FERNANDO,-34.5839,-70.9869
6,O'HIGGINS,LGBO,63,COLCHAGUA,6302,CHÉPICA,-34.7328,-71.2828
6,O'HIGGINS,LGBO,63,COLCHAGUA,6303,CHIMBARONGO,-34.7078,-71.0419
6,O'HIGGINS,LGBO,63,COLCHAGUA,6304,LOLOL,-34.7308,-71.6358
6,O'HIGGINS,LGBO,63,COLCHAGUA,6305,NANCAGUA,-34.6489,-71.2028
6,O'HIGGINS,LGBO,63,COLCHAGUA,6306,PALMILLA,-34.6039,-71.3578
6,O'HIGGINS,LGBO,63,COLCHAGUA,6307,PERALILLO,-34.4828,-71.4828
6,O'HIGGINS,LGBO,63,COLCHAGUA,6308,PLACILLA,-34.6328,-71.1169
6,O'HIGGINS,LGBO,63,COLCHAGUA,6309,PUMANQUE,-34.605,-71.6439
6,O'HIGGINS,LGBO,63,COLCHAGUA,6310,SANTA CRUZ,-34.6308,-71.3589
7,MAULE,MAULE,71,TALCA,7101,TALCA,-35.4228,-71.6569
7,MAULE,MAULE,71,TALCA,7102,CONSTITUCIÓN,-35.3389,-72.4139
7,MAULE,MAULE,71,TALCA,7103,CUREPTO,-35.0828,-72.0169
7,MAULE,MAULE,71,TALCA,7104,EMPEDRADO,-35.5908,-72.2728
7,MAULE,MAULE,71,TALCA,7105,MAULE,-35.5158,-71.5719
7,MAULE,MAULE,71,TALCA,7106,PELARCO,-35.3778,-71.445
7,MAULE,MAULE,71,TALCA,7107,PENCAHUE,-35.4,-71.8167
7,MAULE,MAULE,71,TALCA,7108,RÍO CLARO,-35.2169,-71.25
7,MAULE,MAULE,71,TALCA,7109,SAN CLEMENTE,-35.5339,-71.4858
7,MAULE,MAULE,71,TALCA,7110,SAN RAFAEL,-35.3169,-71.5328
7,MAULE,MAULE,72,CAUQUENES,7201,CAUQUENES,-35.9639,-72.3169
7,MAULE,MAULE,72,CAUQUENES,7202,CHANCO,-35.7289,-72.53
7,MAULE,MAULE,72,CAUQUENES,7203,PELLUHUE,-35.8139,-72.5739
7,MAULE,MAULE,73,CURICÓ,7301,CURICÓ,-34.9758,-71.2239
7,MAULE,MAULE,73,CURICÓ,7302,HUALAÑÉ,-34.9828,-71.8169
7,MAULE,MAULE,73,CURICÓ,7303,LICANTÉN,-34.9828,-72.0
7,MAULE,MAULE,73,CURICÓ,7304,MOLINA,-35.09,-71.2789
7,MAULE,MAULE,73,CURICÓ,7305,RAUCO,-34.9289,-71.3108
7,MAULE,MAULE,73,CURICÓ,7306,ROMERAL,-34.9669,-71.1328
7,MAULE,MAULE,73,CURICÓ,7307,SAGRADA FAMILIA,-35.0,-71.3828
7,MAULE,MAULE,73,CURICÓ,7308,TENO,-34.8728,-71.1619
7,MAULE,MAULE,73,CURICÓ,7309,VICHUQUÉN,-34.8228,-72.035
7,MAULE,MAULE,74,LINARES,7401,LINARES,-35.85,-71.585
7,MAULE,MAULE,74,LINARES,7402,COLBÚN,-35.7,-71.4169
7,MAULE,MAULE,74,LINARES,7403,LONGAVÍ,-35.9658,-71.6819
7,MAULE,MAULE,74,LINARES,7404,PARRAL,-36.1469,-71.8219
7,MAULE,MAULE,74,LINARES,7405,RETIRO,-36.0458,-71.7589
7,MAULE,MAULE,74,LINARES,7406,SAN JAVIER,-35.6,-71.75
7,MAULE,MAULE,74,LINARES,7407,VILLA ALEGRE,-35.665,-71.7419
7,MAULE,MAULE,74,LINARES,7408,YERBAS BUENAS,-35.75,-71.5828
8,BIOBÍO,BBIO,81,CONCEPCIÓN,8101,CONCEPCIÓN,-36.815,-73.0289
8,BIOBÍO,BBIO,81,CONCEPCIÓN,8102,CORONEL,-36.9819,-73.1569
8,BIOBÍO,BBIO,81,CONCEPCIÓN,8103,CHIGUAYANTE,-36.9089,-73.0278
8,BIOBÍO,BBIO,81,CONCEPCIÓN,8104,FLORIDA,-36.8208,-72.6619
8,BIOBÍO,BBIO,81,CONCEPCIÓN,8105,HUALQUI,-36.9669,-72.9328
8,BIOBÍO,BBIO,81,CONCEPCIÓN,8106,LOTA,-37.0889,-73.155
8,BIOBÍO,BBIO,81,CONCEPCIÓN,8107,PENCO,-36.7419,-72.9978
8,BIOBÍO,BBIO,81,CONCEPCIÓN,8108,SAN PEDRO DE LA PAZ,-36.8639,-73.1078
8,BIOBÍO,BBIO,81,CONCEPCIÓN,8109,SANTA JUANA,-37.1792,-72.9353
8,BIOBÍO,BBIO,81,CONCEPCIÓN,8110,TALCAHUANO,-36.7358,-73.105
8,BIOBÍO,BBIO,81,CONCEPCIÓN,8111,TOMÉ,-36.6239,-72.95
8,BIOBÍO,BBIO,81,CONCEPCIÓN,8112,HUALPÉN,-36.7889,-73.11
8,BIOBÍO,BBIO,82,ARAUCO,8201,LEBU,-37.6058,-73.6428
8,BIOBÍO,BBIO,82,ARAUCO,8202,ARAUCO,-37.2569,-73.2839
8,BIOBÍO,BBIO,82,ARAUCO,8203,CAÑETE,-35.2828,-72.2328
8,BIOBÍO,BBIO,82,ARAUCO,8204,CONTULMO,-38.005,-73.225
8,BIOBÍO,BBIO,82,ARAUCO,8205,CURANILAHUE,-37.4719,-73.3478
8,BIOBÍO,BBIO,82,ARAUCO,8206,LOS ALAMOS,-37.6208,-73.4558
8,BIOBÍO,BBIO,82,ARAUCO,8207,TIRÚA,-38.3389,-73.4839
8,BIOBÍO,BBIO,83,BIOBÍO,8301,LOS ANGELES,-36.9439,-72.3508
8,BIOBÍO,BBIO,83,BIOBÍO,8302,ANTUCO,-37.3269,-71.6778
8,BIOBÍO,BBIO,83,BIOBÍO,8303,CABRERO,-37.0389,-72.3989
8,BIOBÍO,BBIO,83,BIOBÍO,8304,LAJA,-37.2669,-72.7
8,BIOBÍO,BBIO,83,BIOBÍO,8305,MULCHÉN,-37.715,-72.2389
8,BIOBÍO,BBIO,83,BIOBÍO,8306,NACIMIENTO,-37.5008,-72.6758
8,BIOBÍO,BBIO,83,BIOBÍO,8307,NEGRETE,-37.5828,-72.5169
8,BIOBÍO,BBIO,83,BIOBÍO,8308,QUILACO,-37.68,-72.0069
8,BIOBÍO,BBIO,83,BIOBÍO,8309,QUILLECO,-37.4669,-71.9669
8,BIOBÍO,BBIO,83,BIOBÍO,8310,SAN ROSENDO,-37.2578,-72.7158
8,BIOBÍO,BBIO,83,BIOBÍO,8311,SANTA BÁRBARA,-37.6628,-72.0178
8,BIOBÍO,BBIO,83,BIOBÍO,8312,TUCAPEL,-37.6328,-73.3328
8,BIOBÍO,BBIO,83,BIOBÍO,8313,YUMBEL,-37.0958,-72.5558
8,BIOBÍO,BBIO,83,BIOBÍO,8314,ALTO BIOBÍO,-38.6189,-71.3242
9,LA ARAUCANÍA,ARAUC,91,CAUTÍN,9101,TEMUCO,-38.7269,-72.5989
9,LA ARAUCANÍA,ARAUC,91,CAUTÍN,9102,CARAHUE,-38.7069,-73.16
9,LA ARAUCANÍA,ARAUC,91,CAUTÍN,9103,CUNCO,-38.93,-72.0269
9,LA ARAUCANÍA,ARAUC,91,CAUTÍN,9104,CURARREHUE,-39.3589,-71.5878
9,LA ARAUCANÍA,ARAUC,91,CAUTÍN,9105,FREIRE,-38.9539,-72.6219
9,LA ARAUCANÍA,ARAUC,91,CAUTÍN,9106,GALVARINO,-38.4,-72.7833
9,LA ARAUCANÍA,ARAUC,91,CAUTÍN,9107,GORBEA,-39.095,-72.6719
9,LA ARAUCANÍA,ARAUC,91,CAUTÍN,9108,LAUTARO,-38.5289,-72.4269
9,LA ARAUCANÍA,ARAUC,91,CAUTÍN,9109,LONCOCHE,-39.3539,-72.6278
9,LA ARAUCANÍA,ARAUC,91,CAUTÍN,9110,MELIPEUCO,-38.8428,-71.6869
9,LA ARAUCANÍA,ARAUC,91,CAUTÍN,9111,NUEVA IMPERIAL,-38.745,-72.95
9,LA ARAUCANÍA,ARAUC,91,CAUTÍN,9112,PADRE LAS CASAS,-38.7658,-72.5928
9,LA ARAUCANÍA,ARAUC,91,CAUTÍN,9113,PERQUENCO,-38.4169,-72.3828
9,LA ARAUCANÍA,ARAUC,91,CAUTÍN,9114,PITRUFQUÉN,-38.9828,-72.6428
9,LA ARAUCANÍA,ARAUC,91,CAUTÍN,9115,PUCÓN,-39.2819,-71.9539
9,LA ARAUCANÍA,ARAUC,91,CAUTÍN,9116,SAAVEDRA,-38.7828,-73.4
9,LA ARAUCANÍA,ARAUC,91,CAUTÍN,9117,TEODORO SCHMIDT,-38.9667,-73.05
9,LA ARAUCANÍA,ARAUC,91,CAUTÍN,9118,TOLTÉN,-39.2169,-73.2169
9,LA ARAUCANÍA,ARAUC,91,CAUTÍN,9119,VILCÚN,-39.1167,-72.3794
9,LA ARAUCANÍA,ARAUC,91,CAUTÍN,9120,VILLARRICA,-39.28,-72.2178
9,LA ARAUCANÍA,ARAUC,91,CAUTÍN,9121,CHOLCHOL,-38.6,-72.85
9,LA ARAUCANÍA,ARAUC,92,MALLECO,9201,ANGOL,-37.8028,-72.7019
9,LA ARAUCANÍA,ARAUC,92,MALLECO,9202,COLLIPULLI,-37.9528,-72.4319
9,LA ARAUCANÍA,ARAUC,92,MALLECO,9203,CURACAUTÍN,-38.4319,-71.89
9,LA ARAUCANÍA,ARAUC,92,MALLECO,9204,ERCILLA,-38.05,-72.3833
9,LA ARAUCANÍA,ARAUC,92,MALLECO,9205,LONQUIMAY,-38.4328,-71.2328
9,LA ARAUCANÍA,ARAUC,92,MALLECO,9206,LOS SAUCES,-37.9669,-72.8328
9,LA ARAUCANÍA,ARAUC,92,MALLECO,9207,LUMACO,-38.1628,-72.9039
9,LA ARAUCANÍA,ARAUC,92,MALLECO,9208,PURÉN,-38.0219,-73.07
9,LA ARAUCANÍA,ARAUC,92,MALLECO,9209,RENAICO,-37.6669,-72.5828
9,LA ARAUCANÍA,ARAUC,92,MALLECO,9210,TRAIGUÉN,-38.2478,-72.675
9,LA ARAUCANÍA,ARAUC,92,MALLECO,9211,VICTORIA,-38.23,-72.3428
10,LOS LAGOS,LAGOS,101,LLANQUIHUE,10101,PUERTO MONTT,-41.4539,-72.9928
10,LOS LAGOS,LAGOS,101,LLANQUIHUE,10102,CALBUCO,-41.7578,-73.1508
10,LOS LAGOS,LAGOS,101,LLANQUIHUE,10103,COCHAMÓ,-41.5,-72.3169
10,LOS LAGOS,LAGOS,101,LLANQUIHUE,10104,FRESIA,-41.1528,-73.42
10,LOS LAGOS,LAGOS,101,LLANQUIHUE,10105,FRUTILLAR,-41.1167,-73.1
10,LOS LAGOS,LAGOS,101,LLANQUIHUE,10106,LOS MUERMOS,-41.3908,-73.465
10,LOS LAGOS,LAGOS,101,LLANQUIHUE,10107,LLANQUIHUE,-41.2658,-73.0119
10,LOS LAGOS,LAGOS,101,LLANQUIHUE,10108,MAULLÍN,-41.6178,-73.5978
10,LOS LAGOS,LAGOS,101,LLANQUIHUE,10109,PUERTO VARAS,-41.3228,-72.97
10,LOS LAGOS,LAGOS,102,CHILOÉ,10201,CASTRO,-42.4778,-73.7789
10,LOS LAGOS,LAGOS,102,CHILOÉ,10202,ANCUD,-41.8769,-73.8139
10,LOS LAGOS,LAGOS,102,CHILOÉ,10203,CHONCHI,-42.6258,-73.7808
10,LOS LAGOS,LAGOS,102,CHILOÉ,10204,CURACO DE VÉLEZ,-42.4339,-73.5819
10,LOS LAGOS,LAGOS,102,CHILOÉ,10205,DALCAHUE,-42.3739,-73.6508
10,LOS LAGOS,LAGOS,102,CHILOÉ,10206,PUQUELDÓN,-42.6039,-73.6839
10,LOS LAGOS,LAGOS,102,CHILOÉ,10207,QUEILÉN,-42.8739,-73.47
10,LOS LAGOS,LAGOS,102,CHILOÉ,10208,QUELLÓN,-43.1208,-73.6078
10,LOS LAGOS,LAGOS,102,CHILOÉ,10209,QUEMCHI,-42.1419,-73.4778
10,LOS LAGOS,LAGOS,102,CHILOÉ,10210,QUINCHAO,-42.4789,-73.4969
10,LOS LAGOS,LAGOS,103,OSORNO,10301,OSORNO,-40.5739,-73.1258
10,LOS LAGOS,LAGOS,103,OSORNO,10302,PUERTO OCTAY,-40.9669,-72.9
10,LOS LAGOS,LAGOS,103,OSORNO,10303,PURRANQUE,-40.9089,-73.175
10,LOS LAGOS,LAGOS,103,OSORNO,10304,PUYEHUE,-40.7169,-72.3208
10,LOS LAGOS,LAGOS,103,OSORNO,10305,RÍO NEGRO,-41.9669,-72.45
10,LOS LAGOS,LAGOS,103,OSORNO,10306,SAN JUAN DE LA COSTA,-40.5008,-73.3919
10,LOS LAGOS,LAGOS,103,OSORNO,10307,SAN PABLO,-40.4,-73.0167
10,LOS LAGOS,LAGOS,104,PALENA,10401,CHAITÉN,-42.8989,-72.6669
10,LOS LAGOS,LAGOS,104,PALENA,10402,FUTALEUFÚ,-43.1678,-71.8478
10,LOS LAGOS,LAGOS,104,PALENA,10403,HUALAIHUÉ,-41.9919,-72.6669
10,LOS LAGOS,LAGOS,104,PALENA,10404,PALENA,-43.6228,-71.8039
11,AYSÉN,AYSEN,111,COYHAIQUE,11101,COYHAIQUE,-45.5639,-72.065
11,AYSÉN,AYSEN,111,COYHAIQUE,11102,LAGO VERDE,-44.2189,-71.8389
11,AYSÉN,AYSEN,112,AYSÉN,11201,AYSÉN,-45.4119,-72.6978
11,AYSÉN,AYSEN,112,AYSÉN,11202,CISNES,-44.7508,-72.6969
11,AYSÉN,AYSEN,112,AYSÉN,11203,GUAITECAS,-43.8839,-73.95
11,AYSÉN,AYSEN,113,CAPITÁN PRAT,11301,COCHRANE,-47.2539,-72.5733
11,AYSÉN,AYSEN,113,CAPITÁN PRAT,11302,O'HIGGINS,-48.4667,-72.5667
11,AYSÉN,AYSEN,113,CAPITÁN PRAT,11303,TORTEL,-47.7808,-73.5119
11,AYSÉN,AYSEN,114,GENERAL CARRERA,11401,CHILE CHICO,-46.5375,-71.7292
11,AYSÉN,AYSEN,114,GENERAL CARRERA,11402,RÍO IBÁÑEZ,-46.255,-71.95
12,MAGALLANES,MAG,121,MAGALLANES,12101,PUNTA ARENAS,-53.1478,-70.9069
12,MAGALLANES,MAG,121,MAGALLANES,12102,LAGUNA BLANCA,-52.2669,-71.1828
12,MAGALLANES,MAG,121,MAGALLANES,12103,RÍO VERDE,-52.6278,-71.4769
12,MAGALLANES,MAG,121,MAGALLANES,12104,SAN GREGORIO,-52.5669,-70.0669
12,MAGALLANES,MAG,122,ANTÁRTICA CHILENA,12201,CABO DE HORNOS,-54.9469,-67.6069
12,MAGALLANES,MAG,122,ANTÁRTICA CHILENA,12202,ANTÁRTICA,-75.0,-71.5
12,MAGALLANES,MAG,123,TIERRA DEL FUEGO,12301,PORVENIR,-53.2978,-70.385
12,MAGALLANES,MAG,123,TIERRA DEL FUEGO,12302,PRIMAVERA,-52.8858,-69.3528
12,MAGALLANES,MAG,123,TIERRA DEL FUEGO,12303,TIMAUKEL,-53.6719,-69.71
12,MAGALLANES,MAG,124,ÚLTIMA ESPERANZA,12401,NATALES,-51.7328,-72.5169
12,MAGALLANES,MAG,124,ÚLTIMA ESPERANZA,12402,TORRES DEL PAINE,-50.9819,-72.4989
13,METROPOLITANA DE SANTIAGO,RM,131,SANTIAGO,13101,SANTIAGO,-33.4372,-70.6572
13,METROPOLITANA DE SANTIAGO,RM,131,SANTIAGO,13102,CERRILLOS,-33.5,-70.7167
13,METROPOLITANA DE SANTIAGO,RM,131,SANTIAGO,13103,CERRO NAVIA,-33.4219,-70.735
13,METROPOLITANA DE SANTIAGO,RM,131,SANTIAGO,13104,CONCHALÍ,-33.38,-70.675
13,METROPOLITANA DE SANTIAGO,RM,131,SANTIAGO,13105,EL BOSQUE,-33.5669,-70.675
13,METROPOLITANA DE SANTIAGO,RM,131,SANTIAGO,13106,ESTACIÓN CENTRAL,-33.4589,-70.6989
13,METROPOLITANA DE SANTIAGO,RM,131,SANTIAGO,13107,HUECHURABA,-33.3678,-70.6339
13,METROPOLITANA DE SANTIAGO,RM,131,SANTIAGO,13108,INDEPENDENCIA,-33.4128,-70.6658
13,METROPOLITANA DE SANTIAGO,RM,131,SANTIAGO,13109,LA CISTERNA,-33.5289,-70.6628
13,METROPOLITANA DE SANTIAGO,RM,131,SANTIAGO,13110,LA FLORIDA,-33.525,-70.5378
13,METROPOLITANA DE SANTIAGO,RM,131,SANTIAGO,13111,LA GRANJA,-33.5833,-70.5833
13,METROPOLITANA DE SANTIAGO,RM,131,SANTIAGO,13112,LA PINTANA,-33.5828,-70.6339
13,METROPOLITANA DE SANTIAGO,RM,131,SANTIAGO,13113,LA REINA,-33.4428,-70.5319
13,METROPOLITANA DE SANTIAGO,RM,131,SANTIAGO,13114,LAS CONDES,-33.4167,-70.5833
13,METROPOLITANA DE SANTIAGO,RM,131,SANTIAGO,13115,LO BARNECHEA,-33.35,-70.5167
13,METROPOLITANA DE SANTIAGO,RM,131,SANTIAGO,13116,LO ESPEJO,-33.5219,-70.6869
13,METROPOLITANA DE SANTIAGO,RM,131,SANTIAGO,13117,LO PRADO,-33.445,-70.7258
13,METROPOLITANA DE SANTIAGO,RM,131,SANTIAGO,13118,MACUL,-33.4869,-70.6039
13,METROPOLITANA DE SANTIAGO,RM,131,SANTIAGO,13119,MAIPÚ,-33.5167,-70.7667
13,METROPOLITANA DE SANTIAGO,RM,131,SANTIAGO,13120,ÑUÑOA,-33.4539,-70.6039
13,METROPOLITANA DE SANTIAGO,RM,131,SANTIAGO,13121,PEDRO AGUIRRE CERDA,-33.4661,-70.6336
13,METROPOLITANA DE SANTIAGO,RM,131,SANTIAGO,13122,PEÑALOLÉN,-33.4861,-70.5333
13,METROPOLITANA DE SANTIAGO,RM,131,SANTIAGO,13123,PROVIDENCIA,-33.435,-70.6158
13,METROPOLITANA DE SANTIAGO,RM,131,SANTIAGO,13124,PUDAHUEL,-33.4333,-70.7167
13,METROPOLITANA DE SANTIAGO,RM,131,SANTIAGO,13125,QUILICURA,-33.3608,-70.7289
13,METROPOLITANA DE SANTIAGO,RM,131,SANTIAGO,13126,QUINTA NORMAL,-33.4269,-70.6989
13,METROPOLITANA DE SANTIAGO,RM,131,SANTIAGO,13127,RECOLETA,-33.4058,-70.64
13,METROPOLITANA DE SANTIAGO,RM,131,SANTIAGO,13128,RENCA,-33.3978,-70.7228
13,METROPOLITANA DE SANTIAGO,RM,131,SANTIAGO,13129,SAN JOAQUÍN,-33.4908,-70.6278
13,METROPOLITANA DE SANTIAGO,RM,131,SANTIAGO,13130,SAN MIGUEL,-33.4858,-70.6494
13,METROPOLITANA DE SANTIAGO,RM,131,SANTIAGO,13131,SAN RAMÓN,-33.5428,-70.6439
13,METROPOLITANA DE SANTIAGO,RM,131,SANTIAGO,13132,VITACURA,-33.4,-70.6
13,METROPOLITANA DE SANTIAGO,RM,132,CORDILLERA,13201,PUENTE ALTO,-33.6158,-70.57
13,METROPOLITANA DE SANTIAGO,RM,132,CORDILLERA,13202,PIRQUE,-33.6333,-70.55
13,METROPOLITANA DE SANTIAGO,RM,132,CORDILLERA,13203,SAN JOSÉ DE MAIPO,-33.6439,-70.3528
13,METROPOLITANA DE SANTIAGO,RM,133,CHACABUCO,13301,COLINA,-33.1939,-70.6678
13,METROPOLITANA DE SANTIAGO,RM,133,CHACABUCO,13302,LAMPA,-33.2858,-70.8778
13,METROPOLITANA DE SANTIAGO,RM,133,CHACABUCO,13303,TILTIL,-33.085,-70.925
13,METROPOLITANA DE SANTIAGO,RM,134,MAIPO,13401,SAN BERNARDO,-33.5819,-70.6869
13,METROPOLITANA DE SANTIAGO,RM,134,MAIPO,13402,BUIN,-33.7278,-70.7389
13,METROPOLITANA DE SANTIAGO,RM,134,MAIPO,13403,CALERA DE TANGO,-33.6278,-70.785
13,METROPOLITANA DE SANTIAGO,RM,134,MAIPO,13404,PAINE,-33.8119,-70.7228
13,METROPOLITANA DE SANTIAGO,RM,135,MELIPILLA,13501,MELIPILLA,-33.6889,-71.2078
13,METROPOLITANA DE SANTIAGO,RM,135,MELIPILLA,13502,ALHUÉ,-34.0333,-71.1
13,METROPOLITANA DE SANTIAGO,RM,135,MELIPILLA,13503,CURACAVÍ,-33.3989,-71.1369
13,METROPOLITANA DE SANTIAGO,RM,135,MELIPILLA,13504,MARÍA PINTO,-33.515,-71.1189
13,METROPOLITANA DE SANTIAGO,RM,135,MELIPILLA,13505,SAN PEDRO,-33.9,-71.4667
13,METROPOLITANA DE SANTIAGO,RM,136,TALAGANTE,13601,TALAGANTE,-33.6669,-70.9308
13,METROPOLITANA DE SANTIAGO,RM,136,TALAGANTE,13602,EL MONTE,-33.6839,-71.0169
13,METROPOLITANA DE SANTIAGO,RM,136,TALAGANTE,13603,ISLA DE MAIPO,-33.7539,-70.8858
13,METROPOLITANA DE SANTIAGO,RM,136,TALAGANTE,13604,PADRE HURTADO,-33.5667,-70.8333
13,METROPOLITANA DE SANTIAGO,RM,136,TALAGANTE,13605,PEÑAFLOR,-33.6061,-70.8764
14,LOS RÍOS,RIOS,141,VALDIVIA,14101,VALDIVIA,-39.8142,-73.2458
14,LOS RÍOS,RIOS,141,VALDIVIA,14102,CORRAL,-39.8669,-73.4328
14,LOS RÍOS,RIOS,141,VALDIVIA,14103,LANCO,-39.4469,-72.7719
14,LOS RÍOS,RIOS,141,VALDIVIA,14104,LOS LAGOS,-41.92,-72.1419
14,LOS RÍOS,RIOS,141,VALDIVIA,14105,MÁFIL,-39.65,-72.95
14,LOS RÍOS,RIOS,141,VALDIVIA,14106,MARIQUINA,-40.1328,-72.3328
14,LOS RÍOS,RIOS,141,VALDIVIA,14107,PAILLACO,-40.0678,-72.8828
14,LOS RÍOS,RIOS,141,VALDIVIA,14108,PANGUIPULLI,-39.6419,-72.34
14,LOS RÍOS,RIOS,142,RANCO,14201,LA UNIÓN,-40.2919,-73.0878
14,LOS RÍOS,RIOS,142,RANCO,14202,FUTRONO,-40.1308,-72.3958
14,LOS RÍOS,RIOS,142,RANCO,14203,LAGO RANCO,-40.3169,-72.5
14,LOS RÍOS,RIOS,142,RANCO,14204,RÍO BUENO,-40.3378,-72.9569
15,ARICA Y PARINACOTA,AYP,151,ARICA,15101,ARICA,-18.455,-70.29
15,ARICA Y PARINACOTA,AYP,151,ARICA,15102,CAMARONES,-19.0169,-69.8669
15,ARICA Y PARINACOTA,AYP,152,PARINACOTA,15201,PUTRE,-18.2,-69.5828
15,ARICA Y PARINACOTA,AYP,152,PARINACOTA,15202,GENERAL LAGOS,-17.6528,-69.635
16,ÑUBLE,NUBLE,161,DIGUILLÍN,16101,CHILLÁN,-36.6008,-72.1089
16,ÑUBLE,NUBLE,161,DIGUILLÍN,16102,BULNES,-36.7389,-72.2919
16,ÑUBLE,NUBLE,161,DIGUILLÍN,16103,CHILLÁN VIEJO,-36.6328,-72.14
16,ÑUBLE,NUBLE,161,DIGUILLÍN,16104,EL CARMEN,-36.9,-72.0333
16,ÑUBLE,NUBLE,161,DIGUILLÍN,16105,PEMUCO,-36.9778,-72.0908
16,ÑUBLE,NUBLE,161,DIGUILLÍN,16106,PINTO,-36.7,-71.9
16,ÑUBLE,NUBLE,161,DIGUILLÍN,16107,QUILLÓN,-36.7378,-72.4689
16,ÑUBLE,NUBLE,161,DIGUILLÍN,16108,SAN IGNACIO,-36.8,-72.0333
16,ÑUBLE,NUBLE,161,DIGUILLÍN,16109,YUNGAY,-37.1044,-71.9306
16,ÑUBLE,NUBLE,162,ITATA,16201,QUIRIHUE,-36.2808,-72.545
16,ÑUBLE,NUBLE,162,ITATA,16202,COBQUECURA,-36.1328,-72.7828
16,ÑUBLE,NUBLE,162,ITATA,16203,COELEMU,-36.485,-72.6939
16,ÑUBLE,NUBLE,162,ITATA,16204,NINHUE,-36.4008,-72.3969
16,ÑUBLE,NUBLE,162,ITATA,16205,PORTEZUELO,-36.5328,-72.4328
16,ÑUBLE,NUBLE,162,ITATA,16206,RANQUIL,-36.65,-72.55
16,ÑUBLE,NUBLE,162,ITATA,16207,TREGUACO,-36.4289,-72.665
16,ÑUBLE,NUBLE,163,PUNILLA,16301,SAN CARLOS,-36.4219,-71.9589
16,ÑUBLE,NUBLE,163,PUNILLA,16302,COIHUECO,-36.6282,-71.8318
16,ÑUBLE,NUBLE,163,PUNILLA,16303,ÑIQUÉN,-36.2869,-71.8989
16,ÑUBLE,NUBLE,163,PUNILLA,16304,SAN FABIÁN,-36.5539,-71.5489
16,ÑUBLE,NUBLE,163,PUNILLA,16305,SAN NICOLÁS,-36.8828,-72.4828
